{
  "type": "FeatureCollection",
  "generator": "overpass-ide",
  "copyright": "The data included in this document is from www.openstreetmap.org. The data is made available under ODbL.",
  "timestamp": "2020-09-26T06:39:02Z",
  "features": [
    {
      "type": "Feature",
      "properties": {
        "@id": "node/27415805",
        "addr:housenumber": "11",
        "addr:postcode": "75017",
        "addr:street": "Rue Nicolas Chuquet",
        "amenity": "library",
        "defibrillator:location": "approximatif !",
        "email": "mediatheque.edmond-rostand@paris.fr",
        "emergency": "defibrillator",
        "internet_access": "wlan",
        "internet_access:fee": "no",
        "internet_access:operator": "Mairie de Paris",
        "name": "Edmond Rostand",
        "phone": "+33 1 48 88 07 17",
        "source:internet_access": "Paris Open Data",
        "website": "https://www.paris.fr/equipements/mediatheque-edmond-rostand-1741",
        "wheelchair": "no"
      },
      "geometry": {
        "type": "Point",
        "coordinates": [
          2.3034488,
          48.8883391
        ]
      },
      "id": "node/27415805"
    },
    {
      "type": "Feature",
      "properties": {
        "@id": "node/254033221",
        "addr:city": "Paris",
        "addr:country": "FR",
        "addr:housenumber": "6",
        "addr:postcode": "75004",
        "addr:street": "PLACE DES VOSGES",
        "defibrillator:type": "Musée",
        "email": "maisonvictorhugo@paris.fr",
        "emergency": "defibrillator",
        "fee": "free",
        "internet_access": "wlan",
        "internet_access:fee": "no",
        "internet_access:operator": "Mairie de Paris",
        "name": "Maison de Victor Hugo",
        "name:ru": "Дом-музей Виктора Гюго",
        "opening_hours": "Tu-Su 10:00-18:00",
        "phone": "+33 142 721 016",
        "source:internet_access": "Paris Open Data",
        "tourism": "museum",
        "website": "maisonsvictorhugo.paris.fr/",
        "wheelchair": "no",
        "wikidata": "Q2599177",
        "wikipedia": "fr:Maison de Victor Hugo"
      },
      "geometry": {
        "type": "Point",
        "coordinates": [
          2.3661103,
          48.8548144
        ]
      },
      "id": "node/254033221"
    },
    {
      "type": "Feature",
      "properties": {
        "@id": "node/283352094",
        "defibrillator:location": "approximatif !",
        "emergency": "defibrillator",
        "layer": "-1",
        "leisure": "sports_centre",
        "level": "-3",
        "name": "Piscine Suzanne Berlioux",
        "sport": "swimming",
        "website": "http://m.equipement.paris.fr/webapp/equipement/2916",
        "wikidata": "Q3389222",
        "wikipedia": "fr:Piscine Suzanne-Berlioux"
      },
      "geometry": {
        "type": "Point",
        "coordinates": [
          2.3440139,
          48.8626842
        ]
      },
      "id": "node/283352094"
    },
    {
      "type": "Feature",
      "properties": {
        "@id": "node/327419531",
        "addr:housenumber": "52",
        "addr:street": "Rue Rambuteau",
        "brand": "Leroy Merlin",
        "brand:wikidata": "Q889624",
        "brand:wikipedia": "fr:Leroy Merlin",
        "dog": "no",
        "emergency": "defibrillator",
        "level": "0",
        "name": "Leroy Merlin Paris Beaubourg",
        "opening_hours": "Mo-Sa 09:00-20:00; Su 10:00-19:00",
        "phone": "+33 1 44 54 66 66",
        "shop": "doityourself",
        "source": "survey",
        "website": "https://www.leroymerlin.fr/paris-beaubourg",
        "wheelchair": "yes"
      },
      "geometry": {
        "type": "Point",
        "coordinates": [
          2.3521129,
          48.8617178
        ]
      },
      "id": "node/327419531"
    },
    {
      "type": "Feature",
      "properties": {
        "@id": "node/372692560",
        "addr:city": "Nevers",
        "addr:housenumber": "4",
        "addr:postcode": "58000",
        "addr:street": "Rue Sabatier",
        "email": "contact@nevers-tourisme.com",
        "emergency": "defibrillator",
        "information": "office",
        "name": "Office de tourisme",
        "phone": "+33 3 86 68 46 00",
        "tourism": "information",
        "website": "http://www.nevers-tourisme.com",
        "wheelchair": "yes"
      },
      "geometry": {
        "type": "Point",
        "coordinates": [
          3.1579292,
          46.9881753
        ]
      },
      "id": "node/372692560"
    },
    {
      "type": "Feature",
      "properties": {
        "@id": "node/404409463",
        "emergency": "defibrillator"
      },
      "geometry": {
        "type": "Point",
        "coordinates": [
          3.1887227,
          50.5791341
        ]
      },
      "id": "node/404409463"
    },
    {
      "type": "Feature",
      "properties": {
        "@id": "node/428039006",
        "amenity": "library",
        "defibrillator:location": "approximatif !",
        "emergency": "defibrillator",
        "internet_access": "wlan",
        "internet_access:fee": "no",
        "internet_access:operator": "Mairie de Paris",
        "name": "Bibliothèque Parmentier",
        "source:internet_access": "Paris Open Data",
        "wheelchair": "no"
      },
      "geometry": {
        "type": "Point",
        "coordinates": [
          2.3791681,
          48.860236
        ]
      },
      "id": "node/428039006"
    },
    {
      "type": "Feature",
      "properties": {
        "@id": "node/493870538",
        "addr:city": "Paris",
        "addr:housenumber": "1",
        "addr:postcode": "75014",
        "addr:street": "Avenue du Colonel Henri Rol Tanguy",
        "defibrillator:location": "approximatif !",
        "emergency": "defibrillator",
        "name": "Catacombes de Paris",
        "name:de": "Katakomben von Paris",
        "name:en": "Catacombs of Paris",
        "name:fr": "Les Catacombes de Paris",
        "name:it": "Catacombe di Parigi",
        "name:ja": "カタコンブ",
        "name:ru": "Катакомбы Парижа",
        "name:zh": "巴黎地下墓穴",
        "opening_hours": "Tu-Su 10:00-20:30",
        "phone": "+33 1 43224763",
        "tourism": "museum",
        "website": "http://www.catacombes.paris.fr/",
        "wheelchair": "no",
        "wikidata": "Q28924",
        "wikipedia": "fr:Catacombes de Paris"
      },
      "geometry": {
        "type": "Point",
        "coordinates": [
          2.3322959,
          48.8337437
        ]
      },
      "id": "node/493870538"
    },
    {
      "type": "Feature",
      "properties": {
        "@id": "node/567062298",
        "emergency": "defibrillator",
        "entrance:step:height": "0",
        "entrance:step_count": "0",
        "entrance:width": "0.95",
        "lottery": "yes",
        "opening_hours:covid19": "open",
        "shop": "newsagent",
        "tobacco": "yes",
        "wheelchair": "yes"
      },
      "geometry": {
        "type": "Point",
        "coordinates": [
          3.8701489,
          43.6294905
        ]
      },
      "id": "node/567062298"
    },
    {
      "type": "Feature",
      "properties": {
        "@id": "node/578524364",
        "amenity": "library",
        "emergency": "defibrillator",
        "name": "Bibliothèque André Malraux",
        "opening_hours": "Tu 15:00-18:00, We 10:00-18:00, Th 16:00-19:45, Fr 15:00-18:00, Sa 10:00-17:00",
        "source": "survey"
      },
      "geometry": {
        "type": "Point",
        "coordinates": [
          2.2600793,
          48.9888957
        ]
      },
      "id": "node/578524364"
    },
    {
      "type": "Feature",
      "properties": {
        "@id": "node/608687153",
        "email": "iris@ville-issy.fr",
        "emergency": "defibrillator",
        "indoor": "no",
        "phone": "+33 1 41 23 80 00",
        "survey:date": "2020-04-03",
        "website": "https://www.issy.com/vie-quotidienne/sante/defibrillateurs"
      },
      "geometry": {
        "type": "Point",
        "coordinates": [
          2.2767967,
          48.8275625
        ]
      },
      "id": "node/608687153"
    },
    {
      "type": "Feature",
      "properties": {
        "@id": "node/616841280",
        "emergency": "defibrillator",
        "source": "cadastre-dgi-fr source : Direction Générale des Impôts - Cadastre ; mise à jour : 2010"
      },
      "geometry": {
        "type": "Point",
        "coordinates": [
          3.1097171,
          45.7496029
        ]
      },
      "id": "node/616841280"
    },
    {
      "type": "Feature",
      "properties": {
        "@id": "node/616850828",
        "emergency": "defibrillator",
        "indoor": "yes",
        "source": "cadastre-dgi-fr source : Direction Générale des Impôts - Cadastre ; mise à jour : 2010"
      },
      "geometry": {
        "type": "Point",
        "coordinates": [
          3.1110617,
          45.7627575
        ]
      },
      "id": "node/616850828"
    },
    {
      "type": "Feature",
      "properties": {
        "@id": "node/621872661",
        "emergency": "defibrillator"
      },
      "geometry": {
        "type": "Point",
        "coordinates": [
          2.0597864,
          47.2265371
        ]
      },
      "id": "node/621872661"
    },
    {
      "type": "Feature",
      "properties": {
        "@id": "node/632217051",
        "addr:city": "Athis-Mons",
        "addr:housenumber": "3",
        "addr:postcode": "91200",
        "addr:street": "Avenue Aristide Briand",
        "amenity": "police",
        "defibrillator:location": "Ex-CPAM",
        "email": "police@mairie-athis-mons.fr",
        "emergency": "defibrillator",
        "indoor": "yes",
        "name": "Police Municipale",
        "opening_hours": "Mo-We 08:30-18:00; Fr 08:30-18:00; Th 14:00-18:00",
        "opening_hours:covid19": "open",
        "operator": "Mairie d'Athis-Mons",
        "phone": "+33 1 69 54 54 95",
        "police:FR": "police_municipale",
        "ref:SDIS91": "1339346493",
        "short_name": "PM",
        "source": "survey",
        "source:position": "SDIS91-manuel",
        "website": "http://www.mairie-athis-mons.fr/annuaire/structure_35.htm"
      },
      "geometry": {
        "type": "Point",
        "coordinates": [
          2.3859349,
          48.705712
        ]
      },
      "id": "node/632217051"
    },
    {
      "type": "Feature",
      "properties": {
        "@id": "node/651972327",
        "emergency": "defibrillator"
      },
      "geometry": {
        "type": "Point",
        "coordinates": [
          7.2553523,
          47.8269038
        ]
      },
      "id": "node/651972327"
    },
    {
      "type": "Feature",
      "properties": {
        "@id": "node/651972335",
        "emergency": "defibrillator"
      },
      "geometry": {
        "type": "Point",
        "coordinates": [
          7.2708921,
          47.8262539
        ]
      },
      "id": "node/651972335"
    },
    {
      "type": "Feature",
      "properties": {
        "@id": "node/693147003",
        "emergency": "defibrillator"
      },
      "geometry": {
        "type": "Point",
        "coordinates": [
          -2.1308419,
          47.1128524
        ]
      },
      "id": "node/693147003"
    },
    {
      "type": "Feature",
      "properties": {
        "@id": "node/693452153",
        "emergency": "defibrillator",
        "indoor": "no"
      },
      "geometry": {
        "type": "Point",
        "coordinates": [
          -2.1038379,
          47.1157729
        ]
      },
      "id": "node/693452153"
    },
    {
      "type": "Feature",
      "properties": {
        "@id": "node/700449131",
        "addr:city": "Paris",
        "addr:housenumber": "16",
        "addr:postcode": "75004",
        "addr:street": "Rue du Renard",
        "defibrillator:location": "approximatif !",
        "emergency": "defibrillator",
        "leisure": "sports_centre",
        "name": "Piscine Saint-Merri",
        "opening_hours": "Tu 07:00-08:30, 11:30-13:00; We, Fr 07:00-18:00; Th 07:00-08:30, 11:30-13:30, 16:30-22:00; Sa 07:00-08:00, 18:00-18:00",
        "source": "survey",
        "sport": "swimming",
        "website": "http://equipement.paris.fr/Piscine%20Saint-Merri"
      },
      "geometry": {
        "type": "Point",
        "coordinates": [
          2.3527709,
          48.859199
        ]
      },
      "id": "node/700449131"
    },
    {
      "type": "Feature",
      "properties": {
        "@id": "node/727779861",
        "amenity": "library",
        "emergency": "defibrillator",
        "name": "Bibliothèque André Malraux",
        "wheelchair": "yes"
      },
      "geometry": {
        "type": "Point",
        "coordinates": [
          2.3275469,
          48.8479918
        ]
      },
      "id": "node/727779861"
    },
    {
      "type": "Feature",
      "properties": {
        "@id": "node/729792065",
        "emergency": "defibrillator"
      },
      "geometry": {
        "type": "Point",
        "coordinates": [
          1.5598114,
          43.5178655
        ]
      },
      "id": "node/729792065"
    },
    {
      "type": "Feature",
      "properties": {
        "@id": "node/738106216",
        "amenity": "pharmacy",
        "dispensing": "yes",
        "email": "catherine.frigot@perso.alliadis.net",
        "emergency": "defibrillator",
        "fax": "+33549090931",
        "healthcare": "pharmacy",
        "name": "Pharmacie Frigot",
        "opening_hours": "Mo 10:00-19:30; Tu-Fr 09:00-19:30; Sa 09:00-12:30,14:00-19:00",
        "phone": "+33549240041",
        "ref:FR:FINESS": "790010755",
        "source": "Observation sur place + GPS; Celtipharm - 10/2014",
        "website": "http://www.pharmacie-niort.com",
        "wheelchair": "yes"
      },
      "geometry": {
        "type": "Point",
        "coordinates": [
          -0.4617587,
          46.3246342
        ]
      },
      "id": "node/738106216"
    },
    {
      "type": "Feature",
      "properties": {
        "@id": "node/740880112",
        "emergency": "defibrillator",
        "name": "Défibrillateur"
      },
      "geometry": {
        "type": "Point",
        "coordinates": [
          -4.7176907,
          48.4325384
        ]
      },
      "id": "node/740880112"
    },
    {
      "type": "Feature",
      "properties": {
        "@id": "node/740880114",
        "emergency": "defibrillator",
        "name": "Défibrillateur"
      },
      "geometry": {
        "type": "Point",
        "coordinates": [
          -4.717651,
          48.4358367
        ]
      },
      "id": "node/740880114"
    },
    {
      "type": "Feature",
      "properties": {
        "@id": "node/740880115",
        "emergency": "defibrillator",
        "name": "Défibrillateur"
      },
      "geometry": {
        "type": "Point",
        "coordinates": [
          -4.7331138,
          48.4332417
        ]
      },
      "id": "node/740880115"
    },
    {
      "type": "Feature",
      "properties": {
        "@id": "node/786765645",
        "emergency": "defibrillator"
      },
      "geometry": {
        "type": "Point",
        "coordinates": [
          -0.425855,
          45.2991536
        ]
      },
      "id": "node/786765645"
    },
    {
      "type": "Feature",
      "properties": {
        "@id": "node/796001101",
        "access": "yes",
        "defibrillator:location": "Sur la façade nord de la mairie, à coté des entrées de garage.",
        "emergency": "defibrillator",
        "wheelchair": "yes"
      },
      "geometry": {
        "type": "Point",
        "coordinates": [
          5.2453779,
          45.58573
        ]
      },
      "id": "node/796001101"
    },
    {
      "type": "Feature",
      "properties": {
        "@id": "node/800048708",
        "emergency": "defibrillator"
      },
      "geometry": {
        "type": "Point",
        "coordinates": [
          4.6824975,
          45.0368236
        ]
      },
      "id": "node/800048708"
    },
    {
      "type": "Feature",
      "properties": {
        "@id": "node/800479822",
        "emergency": "defibrillator"
      },
      "geometry": {
        "type": "Point",
        "coordinates": [
          4.9473719,
          48.636715
        ]
      },
      "id": "node/800479822"
    },
    {
      "type": "Feature",
      "properties": {
        "@id": "node/801027572",
        "access": "yes",
        "defibrillator:location": "outside on the wall",
        "emergency": "defibrillator",
        "indoor": "no",
        "mapillary": "7fsYAzGVU-sKhyUp3pZemA"
      },
      "geometry": {
        "type": "Point",
        "coordinates": [
          6.3534803,
          47.3493845
        ]
      },
      "id": "node/801027572"
    },
    {
      "type": "Feature",
      "properties": {
        "@id": "node/805472786",
        "emergency": "defibrillator",
        "indoor": "no"
      },
      "geometry": {
        "type": "Point",
        "coordinates": [
          4.0823779,
          43.5563772
        ]
      },
      "id": "node/805472786"
    },
    {
      "type": "Feature",
      "properties": {
        "@id": "node/818844102",
        "amenity": "library",
        "contact:housenumber": "19",
        "contact:street": "Rue Salomon Reinach",
        "emergency": "defibrillator",
        "heritage": "3",
        "heritage:operator": "mhs",
        "internet_access": "wlan",
        "mhs:inscription_date": "1984-12-21",
        "name": "Bibliothèque Marmottan",
        "ref:mhs": "PA00088071",
        "source": "Open Data - Boulogne-Billancourt",
        "source:heritage": "data.gouv.fr:Ministère de la Culture - 06/2019",
        "wikidata": "Q2901290",
        "wikipedia": "fr:Bibliothèque Marmottan"
      },
      "geometry": {
        "type": "Point",
        "coordinates": [
          2.2464251,
          48.8432484
        ]
      },
      "id": "node/818844102"
    },
    {
      "type": "Feature",
      "properties": {
        "@id": "node/821794702",
        "emergency": "defibrillator"
      },
      "geometry": {
        "type": "Point",
        "coordinates": [
          2.1914117,
          42.9380368
        ]
      },
      "id": "node/821794702"
    },
    {
      "type": "Feature",
      "properties": {
        "@id": "node/828784343",
        "emergency": "defibrillator"
      },
      "geometry": {
        "type": "Point",
        "coordinates": [
          -1.7736013,
          49.594947
        ]
      },
      "id": "node/828784343"
    },
    {
      "type": "Feature",
      "properties": {
        "@id": "node/831832981",
        "access": "yes",
        "defibrillator:location": "devant la porte d'entrée du cabinet médical",
        "emergency": "defibrillator",
        "indoor": "no",
        "level": "0",
        "opening_hours": "24/7",
        "wheelchair": "yes"
      },
      "geometry": {
        "type": "Point",
        "coordinates": [
          6.2274423,
          44.6677953
        ]
      },
      "id": "node/831832981"
    },
    {
      "type": "Feature",
      "properties": {
        "@id": "node/838434985",
        "emergency": "defibrillator"
      },
      "geometry": {
        "type": "Point",
        "coordinates": [
          5.3782724,
          43.491325
        ]
      },
      "id": "node/838434985"
    },
    {
      "type": "Feature",
      "properties": {
        "@id": "node/838434987",
        "emergency": "defibrillator"
      },
      "geometry": {
        "type": "Point",
        "coordinates": [
          5.3738739,
          43.4917519
        ]
      },
      "id": "node/838434987"
    },
    {
      "type": "Feature",
      "properties": {
        "@id": "node/838823054",
        "emergency": "defibrillator",
        "indoor": "no"
      },
      "geometry": {
        "type": "Point",
        "coordinates": [
          3.2086699,
          50.6113689
        ]
      },
      "id": "node/838823054"
    },
    {
      "type": "Feature",
      "properties": {
        "@id": "node/842075944",
        "addr:housenumber": "18",
        "addr:street": "Rue Roquépine",
        "emergency": "defibrillator",
        "source": "cadastre-dgi-fr source : Direction Générale des Impôts - Cadastre. Mise à jour : 2010"
      },
      "geometry": {
        "type": "Point",
        "coordinates": [
          2.3182727,
          48.8733341
        ]
      },
      "id": "node/842075944"
    },
    {
      "type": "Feature",
      "properties": {
        "@id": "node/848521547",
        "emergency": "defibrillator"
      },
      "geometry": {
        "type": "Point",
        "coordinates": [
          6.0373763,
          43.7000356
        ]
      },
      "id": "node/848521547"
    },
    {
      "type": "Feature",
      "properties": {
        "@id": "node/856730301",
        "emergency": "defibrillator",
        "indoor": "no"
      },
      "geometry": {
        "type": "Point",
        "coordinates": [
          -3.985452,
          48.7263041
        ]
      },
      "id": "node/856730301"
    },
    {
      "type": "Feature",
      "properties": {
        "@id": "node/870303841",
        "defibrillator:location": "À l'extérieur de la bibliothèque, à droite de l'entrée, sur le mur",
        "emergency": "defibrillator",
        "indoor": "no",
        "opening_hours": "24/7"
      },
      "geometry": {
        "type": "Point",
        "coordinates": [
          3.7348047,
          47.6650891
        ]
      },
      "id": "node/870303841"
    },
    {
      "type": "Feature",
      "properties": {
        "@id": "node/871936587",
        "emergency": "defibrillator"
      },
      "geometry": {
        "type": "Point",
        "coordinates": [
          6.6383889,
          44.8980742
        ]
      },
      "id": "node/871936587"
    },
    {
      "type": "Feature",
      "properties": {
        "@id": "node/874070757",
        "emergency": "defibrillator"
      },
      "geometry": {
        "type": "Point",
        "coordinates": [
          3.9691224,
          43.656828
        ]
      },
      "id": "node/874070757"
    },
    {
      "type": "Feature",
      "properties": {
        "@id": "node/877143067",
        "emergency": "defibrillator"
      },
      "geometry": {
        "type": "Point",
        "coordinates": [
          5.6816035,
          45.0868171
        ]
      },
      "id": "node/877143067"
    },
    {
      "type": "Feature",
      "properties": {
        "@id": "node/894159568",
        "emergency": "defibrillator"
      },
      "geometry": {
        "type": "Point",
        "coordinates": [
          1.6259688,
          43.3508564
        ]
      },
      "id": "node/894159568"
    },
    {
      "type": "Feature",
      "properties": {
        "@id": "node/907355164",
        "emergency": "defibrillator"
      },
      "geometry": {
        "type": "Point",
        "coordinates": [
          0.3427135,
          46.5808072
        ]
      },
      "id": "node/907355164"
    },
    {
      "type": "Feature",
      "properties": {
        "@id": "node/923487807",
        "emergency": "defibrillator",
        "leisure": "sports_centre",
        "name": "Gymnase Denfert-Rochereau",
        "source": "survey",
        "sport": "multi"
      },
      "geometry": {
        "type": "Point",
        "coordinates": [
          2.2455813,
          48.8445077
        ]
      },
      "id": "node/923487807"
    },
    {
      "type": "Feature",
      "properties": {
        "@id": "node/938021370",
        "emergency": "defibrillator"
      },
      "geometry": {
        "type": "Point",
        "coordinates": [
          -3.347326,
          48.6727585
        ]
      },
      "id": "node/938021370"
    },
    {
      "type": "Feature",
      "properties": {
        "@id": "node/942515398",
        "emergency": "defibrillator"
      },
      "geometry": {
        "type": "Point",
        "coordinates": [
          -0.5880596,
          46.7238478
        ]
      },
      "id": "node/942515398"
    },
    {
      "type": "Feature",
      "properties": {
        "@id": "node/981570309",
        "access": "yes",
        "emergency": "defibrillator",
        "opening_hours": "24/7",
        "operator": "Mairie"
      },
      "geometry": {
        "type": "Point",
        "coordinates": [
          -0.7279397,
          47.2100097
        ]
      },
      "id": "node/981570309"
    },
    {
      "type": "Feature",
      "properties": {
        "@id": "node/989470006",
        "defibrillator:location": "Sur la droite en entrant dans le bâtiment",
        "emergency": "defibrillator",
        "indoor": "yes",
        "operator": "Commune de Noyal-Châtillon sur Seiche"
      },
      "geometry": {
        "type": "Point",
        "coordinates": [
          -1.6625784,
          48.0353071
        ]
      },
      "id": "node/989470006"
    },
    {
      "type": "Feature",
      "properties": {
        "@id": "node/999973518",
        "emergency": "defibrillator"
      },
      "geometry": {
        "type": "Point",
        "coordinates": [
          -1.8216004,
          49.6132056
        ]
      },
      "id": "node/999973518"
    },
    {
      "type": "Feature",
      "properties": {
        "@id": "node/1027996023",
        "amenity": "marketplace",
        "emergency": "defibrillator",
        "name": "Marché Escudier-Jaurès",
        "opening_hours": "Tu,Fr 08:30-12:30; Su 08:30-13:15",
        "opening_hours:covid19": "open",
        "source": "survey"
      },
      "geometry": {
        "type": "Point",
        "coordinates": [
          2.2380827,
          48.8437908
        ]
      },
      "id": "node/1027996023"
    },
    {
      "type": "Feature",
      "properties": {
        "@id": "node/1030483597",
        "emergency": "defibrillator"
      },
      "geometry": {
        "type": "Point",
        "coordinates": [
          2.7296215,
          42.6967939
        ]
      },
      "id": "node/1030483597"
    },
    {
      "type": "Feature",
      "properties": {
        "@id": "node/1030836341",
        "emergency": "defibrillator",
        "layer": "1"
      },
      "geometry": {
        "type": "Point",
        "coordinates": [
          1.2675367,
          45.8361372
        ]
      },
      "id": "node/1030836341"
    },
    {
      "type": "Feature",
      "properties": {
        "@id": "node/1031277982",
        "emergency": "defibrillator"
      },
      "geometry": {
        "type": "Point",
        "coordinates": [
          6.1574663,
          43.0800481
        ]
      },
      "id": "node/1031277982"
    },
    {
      "type": "Feature",
      "properties": {
        "@id": "node/1031302513",
        "emergency": "defibrillator"
      },
      "geometry": {
        "type": "Point",
        "coordinates": [
          6.1548377,
          43.0274317
        ]
      },
      "id": "node/1031302513"
    },
    {
      "type": "Feature",
      "properties": {
        "@id": "node/1034076524",
        "emergency": "defibrillator"
      },
      "geometry": {
        "type": "Point",
        "coordinates": [
          2.4609006,
          49.0249951
        ]
      },
      "id": "node/1034076524"
    },
    {
      "type": "Feature",
      "properties": {
        "@id": "node/1034076710",
        "emergency": "defibrillator"
      },
      "geometry": {
        "type": "Point",
        "coordinates": [
          2.4601812,
          49.0289559
        ]
      },
      "id": "node/1034076710"
    },
    {
      "type": "Feature",
      "properties": {
        "@id": "node/1041609429",
        "emergency": "defibrillator"
      },
      "geometry": {
        "type": "Point",
        "coordinates": [
          2.7754681,
          48.8726323
        ]
      },
      "id": "node/1041609429"
    },
    {
      "type": "Feature",
      "properties": {
        "@id": "node/1041609436",
        "access": "customers",
        "brand": "Philips",
        "defibrillator:location": "Au niveau des toilettes de l'espace d'emprunt de poussettes",
        "emergency": "defibrillator",
        "indoor": "no",
        "ref:FR:GeoDAE": "16165"
      },
      "geometry": {
        "type": "Point",
        "coordinates": [
          2.7792401,
          48.8712237
        ]
      },
      "id": "node/1041609436"
    },
    {
      "type": "Feature",
      "properties": {
        "@id": "node/1041609484",
        "emergency": "defibrillator"
      },
      "geometry": {
        "type": "Point",
        "coordinates": [
          2.7785575,
          48.8717879
        ]
      },
      "id": "node/1041609484"
    },
    {
      "type": "Feature",
      "properties": {
        "@id": "node/1057607241",
        "addr:city": "Orchamps-Vennes",
        "addr:housenumber": "2",
        "addr:postcode": "25390",
        "addr:street": "Rue de la Mairie",
        "description": "Hall d'accueil de la mairie, défibrillateur disponible 24/24h.",
        "emergency": "defibrillator",
        "indoor": "no",
        "name": "DAE 24/24",
        "operator": "Mairie",
        "ref": "DAE"
      },
      "geometry": {
        "type": "Point",
        "coordinates": [
          6.5266704,
          47.1312426
        ]
      },
      "id": "node/1057607241"
    },
    {
      "type": "Feature",
      "properties": {
        "@id": "node/1057878216",
        "emergency": "defibrillator"
      },
      "geometry": {
        "type": "Point",
        "coordinates": [
          5.8836515,
          43.7581791
        ]
      },
      "id": "node/1057878216"
    },
    {
      "type": "Feature",
      "properties": {
        "@id": "node/1076748323",
        "emergency": "defibrillator",
        "source": "cadastre-dgi-fr source : Direction Générale des Impôts - Cadastre. Mise à jour : 2014"
      },
      "geometry": {
        "type": "Point",
        "coordinates": [
          -0.738981,
          47.009209
        ]
      },
      "id": "node/1076748323"
    },
    {
      "type": "Feature",
      "properties": {
        "@id": "node/1076874086",
        "access": "yes",
        "defibrillator:location": "PLACE DU CHAMP DE FOIRE - MUR WC PUBLIC - VITRE CO",
        "emergency": "defibrillator",
        "opening_hours": "24/7",
        "operator": "COMMUNE",
        "source": "survey"
      },
      "geometry": {
        "type": "Point",
        "coordinates": [
          -1.205711,
          48.119577
        ]
      },
      "id": "node/1076874086"
    },
    {
      "type": "Feature",
      "properties": {
        "@id": "node/1110109752",
        "emergency": "defibrillator"
      },
      "geometry": {
        "type": "Point",
        "coordinates": [
          6.6727879,
          45.2291341
        ]
      },
      "id": "node/1110109752"
    },
    {
      "type": "Feature",
      "properties": {
        "@id": "node/1120237049",
        "emergency": "defibrillator",
        "indoor": "no"
      },
      "geometry": {
        "type": "Point",
        "coordinates": [
          6.8467676,
          44.4512265
        ]
      },
      "id": "node/1120237049"
    },
    {
      "type": "Feature",
      "properties": {
        "@id": "node/1140477414",
        "amenity": "pub",
        "brewery": "Leffe;Leffe Ruby",
        "cuisine": "french",
        "description": "Pub breton, crêperie. Musique à la cave jeudi, vendredi ...",
        "emergency": "defibrillator",
        "name": "Ty Jos",
        "opening_hours": "Tu-Fr 11:30-15:30,18:30-23:00; Sa 11:30-16:00,18:30-23:00; Su,Mo off",
        "website": "http://restaurant-tijos.com/"
      },
      "geometry": {
        "type": "Point",
        "coordinates": [
          2.326045,
          48.8415153
        ]
      },
      "id": "node/1140477414"
    },
    {
      "type": "Feature",
      "properties": {
        "@id": "node/1181488976",
        "access": "customers",
        "defibrillator:location": "Au niveau de l'Arboretum",
        "emergency": "defibrillator",
        "indoor": "no",
        "ref:FR:GeoDAE": "16168"
      },
      "geometry": {
        "type": "Point",
        "coordinates": [
          2.7784619,
          48.8706335
        ]
      },
      "id": "node/1181488976"
    },
    {
      "type": "Feature",
      "properties": {
        "@id": "node/1181491241",
        "emergency": "defibrillator"
      },
      "geometry": {
        "type": "Point",
        "coordinates": [
          2.7745867,
          48.8730439
        ]
      },
      "id": "node/1181491241"
    },
    {
      "type": "Feature",
      "properties": {
        "@id": "node/1189231207",
        "access": "yes",
        "amenity": "toilets",
        "diaper": "yes",
        "emergency": "defibrillator",
        "fee": "no",
        "level": "0",
        "opening_hours": "24/7",
        "wheelchair": "yes"
      },
      "geometry": {
        "type": "Point",
        "coordinates": [
          -0.0183513,
          46.4526939
        ]
      },
      "id": "node/1189231207"
    },
    {
      "type": "Feature",
      "properties": {
        "@id": "node/1203770546",
        "emergency": "defibrillator"
      },
      "geometry": {
        "type": "Point",
        "coordinates": [
          3.8530304,
          48.1634617
        ]
      },
      "id": "node/1203770546"
    },
    {
      "type": "Feature",
      "properties": {
        "@id": "node/1207083231",
        "emergency": "defibrillator",
        "name": "Défibrillateur",
        "note": "site privé mais gardienné en permanence ==> donc potentiellement accessible"
      },
      "geometry": {
        "type": "Point",
        "coordinates": [
          -1.6275081,
          48.1263503
        ]
      },
      "id": "node/1207083231"
    },
    {
      "type": "Feature",
      "properties": {
        "@id": "node/1219282186",
        "emergency": "defibrillator",
        "highway": "emergency_access_point",
        "name": "Défibrillateur",
        "note": "A l'Extérieur de le Hall d'entrée",
        "source": "cadastre-dgi-fr source : Direction Générale des Impôts - Cadastre. Mise à jour : 2011"
      },
      "geometry": {
        "type": "Point",
        "coordinates": [
          -0.2538267,
          46.6455957
        ]
      },
      "id": "node/1219282186"
    },
    {
      "type": "Feature",
      "properties": {
        "@id": "node/1219282456",
        "emergency": "defibrillator",
        "highway": "emergency_access_point",
        "name": "Défibrillateur",
        "note": "Dans la Cour",
        "source": "cadastre-dgi-fr source : Direction Générale des Impôts - Cadastre. Mise à jour : 2011"
      },
      "geometry": {
        "type": "Point",
        "coordinates": [
          -0.2491625,
          46.6520922
        ]
      },
      "id": "node/1219282456"
    },
    {
      "type": "Feature",
      "properties": {
        "@id": "node/1219282604",
        "emergency": "defibrillator",
        "highway": "emergency_access_point",
        "name": "Défibrillateur",
        "note": "A l'Extérieur de l'entrée principale",
        "source": "cadastre-dgi-fr source : Direction Générale des Impôts - Cadastre. Mise à jour : 2011"
      },
      "geometry": {
        "type": "Point",
        "coordinates": [
          -0.25143,
          46.6488329
        ]
      },
      "id": "node/1219282604"
    },
    {
      "type": "Feature",
      "properties": {
        "@id": "node/1219282640",
        "emergency": "defibrillator",
        "highway": "emergency_access_point",
        "name": "Défibrillateur Semi-Automatique",
        "note": "A l'Extérieur de l'entrée principale",
        "source": "cadastre-dgi-fr source : Direction Générale des Impôts - Cadastre. Mise à jour : 2011"
      },
      "geometry": {
        "type": "Point",
        "coordinates": [
          -0.259557,
          46.6358614
        ]
      },
      "id": "node/1219282640"
    },
    {
      "type": "Feature",
      "properties": {
        "@id": "node/1219282659",
        "emergency": "defibrillator",
        "highway": "emergency_access_point",
        "name": "Défibrillateur",
        "note": "A l'Extérieur de l'entrée principale",
        "source": "cadastre-dgi-fr source : Direction Générale des Impôts - Cadastre. Mise à jour : 2011"
      },
      "geometry": {
        "type": "Point",
        "coordinates": [
          -0.2472297,
          46.648466
        ]
      },
      "id": "node/1219282659"
    },
    {
      "type": "Feature",
      "properties": {
        "@id": "node/1219282754",
        "emergency": "defibrillator",
        "highway": "emergency_access_point",
        "name": "Défibrillateur",
        "note": "A l'Intérieur dans le bureau des maîtres nageurs .",
        "source": "cadastre-dgi-fr source : Direction Générale des Impôts - Cadastre. Mise à jour : 2011"
      },
      "geometry": {
        "type": "Point",
        "coordinates": [
          -0.2625444,
          46.6399741
        ]
      },
      "id": "node/1219282754"
    },
    {
      "type": "Feature",
      "properties": {
        "@id": "node/1219282780",
        "emergency": "defibrillator",
        "name": "Défibrillateur",
        "note": "A l'Extérieur du côté entrée principale du public.",
        "source": "cadastre-dgi-fr source : Direction Générale des Impôts - Cadastre. Mise à jour : 2011"
      },
      "geometry": {
        "type": "Point",
        "coordinates": [
          -0.2532991,
          46.643589
        ]
      },
      "id": "node/1219282780"
    },
    {
      "type": "Feature",
      "properties": {
        "@id": "node/1219449587",
        "emergency": "defibrillator",
        "highway": "emergency_access_point",
        "name": "Défibrillateur",
        "note": "A l'Exterieur",
        "source": "cadastre-dgi-fr source : Direction Générale des Impôts - Cadastre. Mise à jour : 2011"
      },
      "geometry": {
        "type": "Point",
        "coordinates": [
          -0.2317852,
          46.6080188
        ]
      },
      "id": "node/1219449587"
    },
    {
      "type": "Feature",
      "properties": {
        "@id": "node/1219542238",
        "access": "yes",
        "defibrillator:location": "Sur le mur côté gauche du bâtiment",
        "emergency": "defibrillator",
        "indoor": "no",
        "name": "Salle l'Aubépine",
        "operator": "Commune de Pompaire",
        "ref:FR:GeoDAE": "2560",
        "source": "Direction Générale de la Santé"
      },
      "geometry": {
        "type": "Point",
        "coordinates": [
          -0.2421979,
          46.6350839
        ]
      },
      "id": "node/1219542238"
    },
    {
      "type": "Feature",
      "properties": {
        "@id": "node/1222800753",
        "addr:housenumber": "32",
        "amenity": "public_building",
        "emergency": "defibrillator",
        "name": "Syndicat Intercommunal d'Electricité et de Services de Seyssel",
        "opening_hours": "Mo-Fr 08:30-12:00,13:30-17:15",
        "source": "cadastre-dgi-fr source : Direction Générale des Impôts - Cadastre. Mise à jour : 2011",
        "wheelchair": "no"
      },
      "geometry": {
        "type": "Point",
        "coordinates": [
          5.8366353,
          45.9593848
        ]
      },
      "id": "node/1222800753"
    },
    {
      "type": "Feature",
      "properties": {
        "@id": "node/1223264494",
        "emergency": "defibrillator",
        "highway": "emergency_access_point",
        "name": "Défibrillateur",
        "source": "cadastre-dgi-fr source : Direction Générale des Impôts - Cadastre. Mise à jour : 2011"
      },
      "geometry": {
        "type": "Point",
        "coordinates": [
          -0.2341292,
          46.6066269
        ]
      },
      "id": "node/1223264494"
    },
    {
      "type": "Feature",
      "properties": {
        "@id": "node/1225641322",
        "emergency": "defibrillator"
      },
      "geometry": {
        "type": "Point",
        "coordinates": [
          -1.808347,
          49.5131358
        ]
      },
      "id": "node/1225641322"
    },
    {
      "type": "Feature",
      "properties": {
        "@id": "node/1225864608",
        "emergency": "defibrillator",
        "source": "cadastre-dgi-fr source : Direction Générale des Impôts - Cadastre. Mise à jour : 2011"
      },
      "geometry": {
        "type": "Point",
        "coordinates": [
          2.9036196,
          50.3934047
        ]
      },
      "id": "node/1225864608"
    },
    {
      "type": "Feature",
      "properties": {
        "@id": "node/1244929382",
        "emergency": "defibrillator"
      },
      "geometry": {
        "type": "Point",
        "coordinates": [
          -0.9931249,
          45.6311199
        ]
      },
      "id": "node/1244929382"
    },
    {
      "type": "Feature",
      "properties": {
        "@id": "node/1244929400",
        "emergency": "defibrillator"
      },
      "geometry": {
        "type": "Point",
        "coordinates": [
          -1.0774368,
          45.6389121
        ]
      },
      "id": "node/1244929400"
    },
    {
      "type": "Feature",
      "properties": {
        "@id": "node/1254121508",
        "emergency": "defibrillator"
      },
      "geometry": {
        "type": "Point",
        "coordinates": [
          4.989797,
          45.3527279
        ]
      },
      "id": "node/1254121508"
    },
    {
      "type": "Feature",
      "properties": {
        "@id": "node/1268927155",
        "emergency": "defibrillator"
      },
      "geometry": {
        "type": "Point",
        "coordinates": [
          -1.872472,
          47.978812
        ]
      },
      "id": "node/1268927155"
    },
    {
      "type": "Feature",
      "properties": {
        "@id": "node/1276359706",
        "emergency": "defibrillator",
        "name": "Défibrillateur",
        "note": "on the outdoor parking, in front of Carrefour Market"
      },
      "geometry": {
        "type": "Point",
        "coordinates": [
          1.9190352,
          47.9279299
        ]
      },
      "id": "node/1276359706"
    },
    {
      "type": "Feature",
      "properties": {
        "@id": "node/1276361775",
        "emergency": "defibrillator",
        "indoor": "room",
        "level": "0",
        "location": "indoor",
        "name": "Défibrillateur",
        "note": "Gare",
        "note:en": "in the train station"
      },
      "geometry": {
        "type": "Point",
        "coordinates": [
          1.9067373,
          47.9266539
        ]
      },
      "id": "node/1276361775"
    },
    {
      "type": "Feature",
      "properties": {
        "@id": "node/1276595850",
        "emergency": "defibrillator"
      },
      "geometry": {
        "type": "Point",
        "coordinates": [
          -1.65235,
          49.64782
        ]
      },
      "id": "node/1276595850"
    },
    {
      "type": "Feature",
      "properties": {
        "@id": "node/1286596956",
        "emergency": "defibrillator",
        "name": "Défibrilateur"
      },
      "geometry": {
        "type": "Point",
        "coordinates": [
          4.1465676,
          49.3351142
        ]
      },
      "id": "node/1286596956"
    },
    {
      "type": "Feature",
      "properties": {
        "@id": "node/1296444426",
        "emergency": "defibrillator"
      },
      "geometry": {
        "type": "Point",
        "coordinates": [
          -1.8616293,
          49.5507625
        ]
      },
      "id": "node/1296444426"
    },
    {
      "type": "Feature",
      "properties": {
        "@id": "node/1296444428",
        "emergency": "defibrillator"
      },
      "geometry": {
        "type": "Point",
        "coordinates": [
          -1.811783,
          49.5124055
        ]
      },
      "id": "node/1296444428"
    },
    {
      "type": "Feature",
      "properties": {
        "@id": "node/1296444429",
        "emergency": "defibrillator"
      },
      "geometry": {
        "type": "Point",
        "coordinates": [
          -1.8587882,
          49.553267
        ]
      },
      "id": "node/1296444429"
    },
    {
      "type": "Feature",
      "properties": {
        "@id": "node/1296444430",
        "emergency": "defibrillator"
      },
      "geometry": {
        "type": "Point",
        "coordinates": [
          -1.8042949,
          49.5138225
        ]
      },
      "id": "node/1296444430"
    },
    {
      "type": "Feature",
      "properties": {
        "@id": "node/1296444431",
        "emergency": "defibrillator"
      },
      "geometry": {
        "type": "Point",
        "coordinates": [
          -1.7953437,
          49.514667
        ]
      },
      "id": "node/1296444431"
    },
    {
      "type": "Feature",
      "properties": {
        "@id": "node/1296444432",
        "emergency": "defibrillator"
      },
      "geometry": {
        "type": "Point",
        "coordinates": [
          -1.803379,
          49.5130065
        ]
      },
      "id": "node/1296444432"
    },
    {
      "type": "Feature",
      "properties": {
        "@id": "node/1296444434",
        "emergency": "defibrillator"
      },
      "geometry": {
        "type": "Point",
        "coordinates": [
          -1.8091929,
          49.5138286
        ]
      },
      "id": "node/1296444434"
    },
    {
      "type": "Feature",
      "properties": {
        "@id": "node/1296445808",
        "emergency": "defibrillator"
      },
      "geometry": {
        "type": "Point",
        "coordinates": [
          -1.8348576,
          49.5682363
        ]
      },
      "id": "node/1296445808"
    },
    {
      "type": "Feature",
      "properties": {
        "@id": "node/1296445812",
        "emergency": "defibrillator"
      },
      "geometry": {
        "type": "Point",
        "coordinates": [
          -1.8077327,
          49.5113063
        ]
      },
      "id": "node/1296445812"
    },
    {
      "type": "Feature",
      "properties": {
        "@id": "node/1296449967",
        "emergency": "defibrillator"
      },
      "geometry": {
        "type": "Point",
        "coordinates": [
          -1.8666141,
          49.5320219
        ]
      },
      "id": "node/1296449967"
    },
    {
      "type": "Feature",
      "properties": {
        "@id": "node/1296459820",
        "emergency": "defibrillator"
      },
      "geometry": {
        "type": "Point",
        "coordinates": [
          -1.8380578,
          49.5576075
        ]
      },
      "id": "node/1296459820"
    },
    {
      "type": "Feature",
      "properties": {
        "@id": "node/1296462427",
        "emergency": "defibrillator"
      },
      "geometry": {
        "type": "Point",
        "coordinates": [
          -1.8284788,
          49.4887295
        ]
      },
      "id": "node/1296462427"
    },
    {
      "type": "Feature",
      "properties": {
        "@id": "node/1296630847",
        "emergency": "defibrillator",
        "name": "Défibrillateur"
      },
      "geometry": {
        "type": "Point",
        "coordinates": [
          -3.5643419,
          48.7696117
        ]
      },
      "id": "node/1296630847"
    },
    {
      "type": "Feature",
      "properties": {
        "@id": "node/1296630848",
        "emergency": "defibrillator"
      },
      "geometry": {
        "type": "Point",
        "coordinates": [
          -3.5693434,
          48.7700885
        ]
      },
      "id": "node/1296630848"
    },
    {
      "type": "Feature",
      "properties": {
        "@id": "node/1296683982",
        "emergency": "defibrillator",
        "fixme": "Les infos diffèrent entre OSM et GéoDAE, est-il à l'intérieur ou extérieur ?",
        "indoor": "yes",
        "name": "Défibrillateur",
        "opening_hours": "24/7",
        "ref:FR:GeoDAE": "2282",
        "wheelchair": "no"
      },
      "geometry": {
        "type": "Point",
        "coordinates": [
          -3.5776432,
          48.7721188
        ]
      },
      "id": "node/1296683982"
    },
    {
      "type": "Feature",
      "properties": {
        "@id": "node/1302436231",
        "emergency": "defibrillator",
        "source": "survey"
      },
      "geometry": {
        "type": "Point",
        "coordinates": [
          4.7299255,
          45.9027509
        ]
      },
      "id": "node/1302436231"
    },
    {
      "type": "Feature",
      "properties": {
        "@id": "node/1303576213",
        "emergency": "defibrillator",
        "note": "dans la gallerie marchande, sous l'escalator central"
      },
      "geometry": {
        "type": "Point",
        "coordinates": [
          1.8609558,
          47.9040712
        ]
      },
      "id": "node/1303576213"
    },
    {
      "type": "Feature",
      "properties": {
        "@id": "node/1306678358",
        "emergency": "defibrillator",
        "leisure": "sports_centre",
        "name": "Gymnase Clamart",
        "source": "survey"
      },
      "geometry": {
        "type": "Point",
        "coordinates": [
          2.2434966,
          48.8305126
        ]
      },
      "id": "node/1306678358"
    },
    {
      "type": "Feature",
      "properties": {
        "@id": "node/1310040567",
        "defibrillator:location": "17 rue de Reuil, Rez-de-chaussée, hall d'accueil",
        "emergency": "defibrillator",
        "indoor": "yes"
      },
      "geometry": {
        "type": "Point",
        "coordinates": [
          3.137568,
          48.950854
        ]
      },
      "id": "node/1310040567"
    },
    {
      "type": "Feature",
      "properties": {
        "@id": "node/1311770710",
        "emergency": "defibrillator"
      },
      "geometry": {
        "type": "Point",
        "coordinates": [
          3.329301,
          50.409846
        ]
      },
      "id": "node/1311770710"
    },
    {
      "type": "Feature",
      "properties": {
        "@id": "node/1313819225",
        "emergency": "defibrillator",
        "source": "Orthophotographie CRAIG/TopoGEODIS 2009"
      },
      "geometry": {
        "type": "Point",
        "coordinates": [
          3.2903166,
          46.308792
        ]
      },
      "id": "node/1313819225"
    },
    {
      "type": "Feature",
      "properties": {
        "@id": "node/1330082819",
        "access": "yes",
        "emergency": "defibrillator"
      },
      "geometry": {
        "type": "Point",
        "coordinates": [
          6.8754416,
          43.6560222
        ]
      },
      "id": "node/1330082819"
    },
    {
      "type": "Feature",
      "properties": {
        "@id": "node/1346813979",
        "emergency": "defibrillator",
        "note": "dans la gallerie marchande, en face des caisses"
      },
      "geometry": {
        "type": "Point",
        "coordinates": [
          1.860703,
          47.9036544
        ]
      },
      "id": "node/1346813979"
    },
    {
      "type": "Feature",
      "properties": {
        "@id": "node/1346818857",
        "emergency": "defibrillator",
        "fixme": "resurvey"
      },
      "geometry": {
        "type": "Point",
        "coordinates": [
          1.9005796,
          47.9074114
        ]
      },
      "id": "node/1346818857"
    },
    {
      "type": "Feature",
      "properties": {
        "@id": "node/1346818862",
        "emergency": "defibrillator",
        "name": "Défibrillateur",
        "note": "dans le magasin FNAC, derrière le comptoir de l'accueil"
      },
      "geometry": {
        "type": "Point",
        "coordinates": [
          1.904655,
          47.9045236
        ]
      },
      "id": "node/1346818862"
    },
    {
      "type": "Feature",
      "properties": {
        "@id": "node/1350712049",
        "emergency": "defibrillator"
      },
      "geometry": {
        "type": "Point",
        "coordinates": [
          3.9745708,
          48.2752313
        ]
      },
      "id": "node/1350712049"
    },
    {
      "type": "Feature",
      "properties": {
        "@id": "node/1356818116",
        "emergency": "defibrillator",
        "name": "Défibrillateur",
        "note": "dans le hall, face aux caisses"
      },
      "geometry": {
        "type": "Point",
        "coordinates": [
          1.8585923,
          47.9011997
        ]
      },
      "id": "node/1356818116"
    },
    {
      "type": "Feature",
      "properties": {
        "@id": "node/1359965801",
        "emergency": "defibrillator"
      },
      "geometry": {
        "type": "Point",
        "coordinates": [
          2.1312706,
          49.1008257
        ]
      },
      "id": "node/1359965801"
    },
    {
      "type": "Feature",
      "properties": {
        "@id": "node/1360435729",
        "addr:housenumber": "1",
        "addr:postcode": "71100",
        "addr:street": "Olivier Messiaen",
        "emergency": "defibrillator",
        "note": "Conservatoire"
      },
      "geometry": {
        "type": "Point",
        "coordinates": [
          4.8467172,
          46.7790435
        ]
      },
      "id": "node/1360435729"
    },
    {
      "type": "Feature",
      "properties": {
        "@id": "node/1368861678",
        "defibrillator:location": "dans le bureau du médecin",
        "emergency": "defibrillator",
        "indoor": "yes",
        "name": "Défibrillateur"
      },
      "geometry": {
        "type": "Point",
        "coordinates": [
          1.866414,
          47.9131774
        ]
      },
      "id": "node/1368861678"
    },
    {
      "type": "Feature",
      "properties": {
        "@id": "node/1369125363",
        "emergency": "defibrillator",
        "source": "Orthophotographie CRAIG/TopoGEODIS 2009"
      },
      "geometry": {
        "type": "Point",
        "coordinates": [
          2.7385852,
          45.5875415
        ]
      },
      "id": "node/1369125363"
    },
    {
      "type": "Feature",
      "properties": {
        "@id": "node/1375197296",
        "emergency": "defibrillator",
        "indoor": "no"
      },
      "geometry": {
        "type": "Point",
        "coordinates": [
          -3.1885326,
          47.7496449
        ]
      },
      "id": "node/1375197296"
    },
    {
      "type": "Feature",
      "properties": {
        "@id": "node/1387716710",
        "emergency": "defibrillator"
      },
      "geometry": {
        "type": "Point",
        "coordinates": [
          0.7147371,
          49.8620554
        ]
      },
      "id": "node/1387716710"
    },
    {
      "type": "Feature",
      "properties": {
        "@id": "node/1393932333",
        "emergency": "defibrillator",
        "source": "survey"
      },
      "geometry": {
        "type": "Point",
        "coordinates": [
          -2.2358849,
          48.5219438
        ]
      },
      "id": "node/1393932333"
    },
    {
      "type": "Feature",
      "properties": {
        "@id": "node/1396016576",
        "emergency": "defibrillator",
        "source": "cadastre-dgi-fr source : Direction Générale des Impôts - Cadastre. Mise à jour : 2011"
      },
      "geometry": {
        "type": "Point",
        "coordinates": [
          -0.1141029,
          49.2894185
        ]
      },
      "id": "node/1396016576"
    },
    {
      "type": "Feature",
      "properties": {
        "@id": "node/1396217678",
        "access": "permissive",
        "description": "Défibrillateur Automatisé Externe (DAE)",
        "description:en": "Automated External Defibrillator (AED)",
        "emergency": "defibrillator"
      },
      "geometry": {
        "type": "Point",
        "coordinates": [
          4.82757,
          45.763874
        ]
      },
      "id": "node/1396217678"
    },
    {
      "type": "Feature",
      "properties": {
        "@id": "node/1400954609",
        "emergency": "defibrillator",
        "opening_hours": "24/7",
        "source": "survey"
      },
      "geometry": {
        "type": "Point",
        "coordinates": [
          -1.6797738,
          48.111636
        ]
      },
      "id": "node/1400954609"
    },
    {
      "type": "Feature",
      "properties": {
        "@id": "node/1403694083",
        "emergency": "defibrillator",
        "indoor": "no"
      },
      "geometry": {
        "type": "Point",
        "coordinates": [
          -0.567129,
          44.8308257
        ]
      },
      "id": "node/1403694083"
    },
    {
      "type": "Feature",
      "properties": {
        "@id": "node/1406343607",
        "addr:housenumber": "71",
        "addr:street": "Rue de la Gare",
        "emergency": "defibrillator",
        "indoor": "yes",
        "opening_hours": "\"limited\"",
        "operator": "inconnu",
        "source": "cadastre-dgi-fr source : Direction Générale des Impôts - Cadastre. Mise à jour : 2011"
      },
      "geometry": {
        "type": "Point",
        "coordinates": [
          -0.4574476,
          46.3202898
        ]
      },
      "id": "node/1406343607"
    },
    {
      "type": "Feature",
      "properties": {
        "@id": "node/1418057556",
        "emergency": "defibrillator"
      },
      "geometry": {
        "type": "Point",
        "coordinates": [
          4.6779034,
          46.5166769
        ]
      },
      "id": "node/1418057556"
    },
    {
      "type": "Feature",
      "properties": {
        "@id": "node/1418064949",
        "defibrillator:location": "Défibrillateur semi-automatique, situé dans le hall d'entrée.",
        "emergency": "defibrillator",
        "indoor": "yes",
        "manufacturer": "DEFIBTECH LifeLine",
        "serial_number": "316002243",
        "source": "Communauté de Communes du Grand Pontarlier",
        "start_date": "2011-11-01"
      },
      "geometry": {
        "type": "Point",
        "coordinates": [
          6.3514093,
          46.9122358
        ]
      },
      "id": "node/1418064949"
    },
    {
      "type": "Feature",
      "properties": {
        "@id": "node/1418064952",
        "access": "yes",
        "defibrillator:location": "Défibrillateur semi-automatique, situé dans le hall principal.",
        "emergency": "defibrillator",
        "indoor": "yes",
        "manufacturer": "SCHILLER Fred Easy",
        "serial_number": "05/89/48/02/14/15",
        "source": "Communauté de Communes du Grand Pontarlier",
        "start_date": "2009",
        "wheelchair": "yes"
      },
      "geometry": {
        "type": "Point",
        "coordinates": [
          6.3541228,
          46.9041028
        ]
      },
      "id": "node/1418064952"
    },
    {
      "type": "Feature",
      "properties": {
        "@id": "node/1423359813",
        "access": "yes",
        "emergency": "defibrillator",
        "indoor": "no"
      },
      "geometry": {
        "type": "Point",
        "coordinates": [
          5.083592,
          45.660989
        ]
      },
      "id": "node/1423359813"
    },
    {
      "type": "Feature",
      "properties": {
        "@id": "node/1423444826",
        "addr:city": "La Rochelle",
        "addr:country": "FR",
        "addr:housenumber": "69",
        "addr:postcode": "17000",
        "addr:street": "Avenue Jean Guiton",
        "emergency": "defibrillator",
        "name": "Atlantic Aménagement Copala",
        "phone": "+33 5 46 52 06 06"
      },
      "geometry": {
        "type": "Point",
        "coordinates": [
          -1.1659495,
          46.1596277
        ]
      },
      "id": "node/1423444826"
    },
    {
      "type": "Feature",
      "properties": {
        "@id": "node/1430335365",
        "emergency": "defibrillator",
        "highway": "emergency_access_point",
        "name": "Défibrillateur"
      },
      "geometry": {
        "type": "Point",
        "coordinates": [
          -0.2424347,
          46.6481366
        ]
      },
      "id": "node/1430335365"
    },
    {
      "type": "Feature",
      "properties": {
        "@id": "node/1446813309",
        "defibrillator:location": "Défibrillateur semi-automatique, situé dans le couloir d'entrée, près de la billetterie.",
        "emergency": "defibrillator",
        "indoor": "yes",
        "manufacturer": "DEFIBTECH LifeLine",
        "serial_number": "316002186",
        "source": "Communauté de Communes du Grand Pontarlier",
        "start_date": "2011-11-01",
        "wheelchair": "yes"
      },
      "geometry": {
        "type": "Point",
        "coordinates": [
          6.3383546,
          46.9050296
        ]
      },
      "id": "node/1446813309"
    },
    {
      "type": "Feature",
      "properties": {
        "@id": "node/1446813310",
        "defibrillator:location": "Dans les vestiaires du stade OU hall d'entrée nouvelle tribune.",
        "emergency": "defibrillator",
        "fixme": "Vérifier l'emplacement.",
        "manufacturer": "DEFIBTECH LifeLine",
        "serial_number": "316002314",
        "source": "Communauté de Communes du Grand Pontarlier",
        "start_date": "2011-11-01"
      },
      "geometry": {
        "type": "Point",
        "coordinates": [
          6.3425119,
          46.9024448
        ]
      },
      "id": "node/1446813310"
    },
    {
      "type": "Feature",
      "properties": {
        "@id": "node/1446814013",
        "defibrillator:location": "Défibrillateur semi-automatique, situé dans le local administratif.",
        "emergency": "defibrillator",
        "indoor": "yes",
        "manufacturer": "DEFIBTECH LifeLine",
        "serial_number": "316002128",
        "source": "Communauté de Communes du Grand Pontarlier",
        "start_date": "2011-11-01"
      },
      "geometry": {
        "type": "Point",
        "coordinates": [
          6.3639008,
          46.8978307
        ]
      },
      "id": "node/1446814013"
    },
    {
      "type": "Feature",
      "properties": {
        "@id": "node/1446815473",
        "defibrillator:location": "Défibrillateur semi-automatique, situé dans le hall d'entrée.",
        "emergency": "defibrillator",
        "indoor": "yes",
        "manufacturer": "DEFIBTECH LifeLine",
        "serial_number": "316002181",
        "source": "Communauté de Communes du Grand Pontarlier",
        "start_date": "2011-11-01"
      },
      "geometry": {
        "type": "Point",
        "coordinates": [
          6.3269292,
          46.9092792
        ]
      },
      "id": "node/1446815473"
    },
    {
      "type": "Feature",
      "properties": {
        "@id": "node/1446816918",
        "access": "permissive",
        "defibrillator:location": "Défibrillateur semi-automatique, situé dans le hall d'entrée.",
        "emergency": "defibrillator",
        "indoor": "yes",
        "manufacturer": "DEFIBTECH LifeLine",
        "serial_number": "316002225",
        "source": "Communauté de Communes du Grand Pontarlier",
        "start_date": "2011-11-01",
        "wheelchair": "yes"
      },
      "geometry": {
        "type": "Point",
        "coordinates": [
          6.3545681,
          46.9049212
        ]
      },
      "id": "node/1446816918"
    },
    {
      "type": "Feature",
      "properties": {
        "@id": "node/1446818119",
        "defibrillator:location": "Défibrillateur semi-automatique, situé derrière le bar.",
        "emergency": "defibrillator",
        "indoor": "yes",
        "manufacturer": "DEFIBTECH LifeLine",
        "serial_number": "316002198",
        "source": "Communauté de Communes du Grand Pontarlier",
        "start_date": "2011-11-01",
        "wheelchair": "yes"
      },
      "geometry": {
        "type": "Point",
        "coordinates": [
          6.3488462,
          46.9065944
        ]
      },
      "id": "node/1446818119"
    },
    {
      "type": "Feature",
      "properties": {
        "@id": "node/1462277609",
        "emergency": "defibrillator"
      },
      "geometry": {
        "type": "Point",
        "coordinates": [
          5.431566,
          46.129327
        ]
      },
      "id": "node/1462277609"
    },
    {
      "type": "Feature",
      "properties": {
        "@id": "node/1476526886",
        "emergency": "defibrillator",
        "indoor": "yes"
      },
      "geometry": {
        "type": "Point",
        "coordinates": [
          7.6296966,
          48.5764078
        ]
      },
      "id": "node/1476526886"
    },
    {
      "type": "Feature",
      "properties": {
        "@id": "node/1476526888",
        "emergency": "defibrillator",
        "opening_hours": "24/7"
      },
      "geometry": {
        "type": "Point",
        "coordinates": [
          7.6249712,
          48.5778991
        ]
      },
      "id": "node/1476526888"
    },
    {
      "type": "Feature",
      "properties": {
        "@id": "node/1488503052",
        "emergency": "defibrillator",
        "name": "Défibrillateur",
        "note": "défibrillateur Exterieur"
      },
      "geometry": {
        "type": "Point",
        "coordinates": [
          -1.362606,
          48.686543
        ]
      },
      "id": "node/1488503052"
    },
    {
      "type": "Feature",
      "properties": {
        "@id": "node/1491943330",
        "emergency": "defibrillator",
        "source": "survey"
      },
      "geometry": {
        "type": "Point",
        "coordinates": [
          -2.292168,
          48.59631
        ]
      },
      "id": "node/1491943330"
    },
    {
      "type": "Feature",
      "properties": {
        "@id": "node/1492962625",
        "emergency": "defibrillator",
        "name": "Défibrillateur",
        "note": "Sur un mur"
      },
      "geometry": {
        "type": "Point",
        "coordinates": [
          0.1607901,
          43.524276
        ]
      },
      "id": "node/1492962625"
    },
    {
      "type": "Feature",
      "properties": {
        "@id": "node/1496398668",
        "emergency": "defibrillator",
        "indoor": "no"
      },
      "geometry": {
        "type": "Point",
        "coordinates": [
          3.1165693,
          45.7567154
        ]
      },
      "id": "node/1496398668"
    },
    {
      "type": "Feature",
      "properties": {
        "@id": "node/1498673526",
        "emergency": "defibrillator"
      },
      "geometry": {
        "type": "Point",
        "coordinates": [
          -1.8602536,
          47.9204819
        ]
      },
      "id": "node/1498673526"
    },
    {
      "type": "Feature",
      "properties": {
        "@id": "node/1499397769",
        "emergency": "defibrillator",
        "source": "cadastre-dgi-fr source : Direction Générale des Impôts - Cadastre. Mise à jour : 2011"
      },
      "geometry": {
        "type": "Point",
        "coordinates": [
          1.2969718,
          49.4131537
        ]
      },
      "id": "node/1499397769"
    },
    {
      "type": "Feature",
      "properties": {
        "@id": "node/1534089339",
        "emergency": "defibrillator",
        "name": "Défibrillateur"
      },
      "geometry": {
        "type": "Point",
        "coordinates": [
          1.0549409,
          47.8086611
        ]
      },
      "id": "node/1534089339"
    },
    {
      "type": "Feature",
      "properties": {
        "@id": "node/1534089834",
        "emergency": "defibrillator",
        "name": "Défibrillateur"
      },
      "geometry": {
        "type": "Point",
        "coordinates": [
          1.0548551,
          47.8082936
        ]
      },
      "id": "node/1534089834"
    },
    {
      "type": "Feature",
      "properties": {
        "@id": "node/1534091967",
        "emergency": "defibrillator",
        "name": "Défibrillateur"
      },
      "geometry": {
        "type": "Point",
        "coordinates": [
          1.0576388,
          47.8066957
        ]
      },
      "id": "node/1534091967"
    },
    {
      "type": "Feature",
      "properties": {
        "@id": "node/1534092945",
        "emergency": "defibrillator"
      },
      "geometry": {
        "type": "Point",
        "coordinates": [
          1.0652402,
          47.8094482
        ]
      },
      "id": "node/1534092945"
    },
    {
      "type": "Feature",
      "properties": {
        "@id": "node/1534094921",
        "emergency": "defibrillator"
      },
      "geometry": {
        "type": "Point",
        "coordinates": [
          1.066128,
          47.8093348
        ]
      },
      "id": "node/1534094921"
    },
    {
      "type": "Feature",
      "properties": {
        "@id": "node/1534096250",
        "emergency": "defibrillator",
        "name": "Défibrillateur"
      },
      "geometry": {
        "type": "Point",
        "coordinates": [
          1.0617158,
          47.8042458
        ]
      },
      "id": "node/1534096250"
    },
    {
      "type": "Feature",
      "properties": {
        "@id": "node/1534097578",
        "emergency": "defibrillator",
        "name": "Défibrillateur"
      },
      "geometry": {
        "type": "Point",
        "coordinates": [
          1.0804589,
          47.80103
        ]
      },
      "id": "node/1534097578"
    },
    {
      "type": "Feature",
      "properties": {
        "@id": "node/1534099018",
        "emergency": "defibrillator",
        "name": "Défibrillateur"
      },
      "geometry": {
        "type": "Point",
        "coordinates": [
          1.0666509,
          47.7932895
        ]
      },
      "id": "node/1534099018"
    },
    {
      "type": "Feature",
      "properties": {
        "@id": "node/1534100131",
        "emergency": "defibrillator",
        "name": "Défibrillateur"
      },
      "geometry": {
        "type": "Point",
        "coordinates": [
          1.0734905,
          47.7920209
        ]
      },
      "id": "node/1534100131"
    },
    {
      "type": "Feature",
      "properties": {
        "@id": "node/1534100132",
        "emergency": "defibrillator",
        "name": "Défibrillateur"
      },
      "geometry": {
        "type": "Point",
        "coordinates": [
          1.0741611,
          47.7909217
        ]
      },
      "id": "node/1534100132"
    },
    {
      "type": "Feature",
      "properties": {
        "@id": "node/1542867525",
        "emergency": "defibrillator",
        "name": "Défibrillateur"
      },
      "geometry": {
        "type": "Point",
        "coordinates": [
          1.0664159,
          47.791953
        ]
      },
      "id": "node/1542867525"
    },
    {
      "type": "Feature",
      "properties": {
        "@id": "node/1551612626",
        "emergency": "defibrillator"
      },
      "geometry": {
        "type": "Point",
        "coordinates": [
          -0.89785,
          43.772892
        ]
      },
      "id": "node/1551612626"
    },
    {
      "type": "Feature",
      "properties": {
        "@id": "node/1565412075",
        "emergency": "defibrillator"
      },
      "geometry": {
        "type": "Point",
        "coordinates": [
          2.8695857,
          42.6418815
        ]
      },
      "id": "node/1565412075"
    },
    {
      "type": "Feature",
      "properties": {
        "@id": "node/1566913119",
        "emergency": "defibrillator"
      },
      "geometry": {
        "type": "Point",
        "coordinates": [
          1.4734943,
          43.5707998
        ]
      },
      "id": "node/1566913119"
    },
    {
      "type": "Feature",
      "properties": {
        "@id": "node/1567090845",
        "emergency": "defibrillator"
      },
      "geometry": {
        "type": "Point",
        "coordinates": [
          3.1518852,
          50.6836572
        ]
      },
      "id": "node/1567090845"
    },
    {
      "type": "Feature",
      "properties": {
        "@id": "node/1567630050",
        "emergency": "defibrillator"
      },
      "geometry": {
        "type": "Point",
        "coordinates": [
          3.150103,
          50.6865817
        ]
      },
      "id": "node/1567630050"
    },
    {
      "type": "Feature",
      "properties": {
        "@id": "node/1568239542",
        "emergency": "defibrillator",
        "source": "survey"
      },
      "geometry": {
        "type": "Point",
        "coordinates": [
          7.2609519,
          48.1401271
        ]
      },
      "id": "node/1568239542"
    },
    {
      "type": "Feature",
      "properties": {
        "@id": "node/1596092504",
        "addr:housenumber": "2",
        "addr:postcode": "71100",
        "addr:street": "Rue du 11 Novembre 1918",
        "emergency": "defibrillator",
        "note": "Office Municipal des Sport"
      },
      "geometry": {
        "type": "Point",
        "coordinates": [
          4.8487693,
          46.7795394
        ]
      },
      "id": "node/1596092504"
    },
    {
      "type": "Feature",
      "properties": {
        "@id": "node/1596837929",
        "emergency": "defibrillator"
      },
      "geometry": {
        "type": "Point",
        "coordinates": [
          1.2938376,
          45.8598187
        ]
      },
      "id": "node/1596837929"
    },
    {
      "type": "Feature",
      "properties": {
        "@id": "node/1604221287",
        "emergency": "defibrillator",
        "name": "Défibrilateur"
      },
      "geometry": {
        "type": "Point",
        "coordinates": [
          2.0772806,
          48.882543
        ]
      },
      "id": "node/1604221287"
    },
    {
      "type": "Feature",
      "properties": {
        "@id": "node/1618034874",
        "emergency": "defibrillator",
        "level": "0"
      },
      "geometry": {
        "type": "Point",
        "coordinates": [
          4.881547,
          43.983298
        ]
      },
      "id": "node/1618034874"
    },
    {
      "type": "Feature",
      "properties": {
        "@id": "node/1618055629",
        "emergency": "defibrillator"
      },
      "geometry": {
        "type": "Point",
        "coordinates": [
          -2.2987115,
          47.0236087
        ]
      },
      "id": "node/1618055629"
    },
    {
      "type": "Feature",
      "properties": {
        "@id": "node/1620264866",
        "emergency": "defibrillator"
      },
      "geometry": {
        "type": "Point",
        "coordinates": [
          5.9536537,
          47.3071553
        ]
      },
      "id": "node/1620264866"
    },
    {
      "type": "Feature",
      "properties": {
        "@id": "node/1635850495",
        "emergency": "defibrillator"
      },
      "geometry": {
        "type": "Point",
        "coordinates": [
          -2.2170897,
          46.9664877
        ]
      },
      "id": "node/1635850495"
    },
    {
      "type": "Feature",
      "properties": {
        "@id": "node/1635850528",
        "emergency": "defibrillator"
      },
      "geometry": {
        "type": "Point",
        "coordinates": [
          -2.2338568,
          46.9680278
        ]
      },
      "id": "node/1635850528"
    },
    {
      "type": "Feature",
      "properties": {
        "@id": "node/1635850542",
        "emergency": "defibrillator"
      },
      "geometry": {
        "type": "Point",
        "coordinates": [
          -2.293496,
          46.985895
        ]
      },
      "id": "node/1635850542"
    },
    {
      "type": "Feature",
      "properties": {
        "@id": "node/1637149973",
        "emergency": "defibrillator"
      },
      "geometry": {
        "type": "Point",
        "coordinates": [
          5.663807,
          44.764536
        ]
      },
      "id": "node/1637149973"
    },
    {
      "type": "Feature",
      "properties": {
        "@id": "node/1647012085",
        "addr:city": "Compiègne",
        "addr:country": "FR",
        "addr:postcode": "60200",
        "addr:street": "Rue Roger Coutollenc",
        "emergency": "defibrillator",
        "name": "Défibrillateur",
        "note": "Situé à l'UTC, devant l'accueil, bâtiment F. ACCES UNIQUEMENT LES JOURS DE SEMAINE, HORS VACANCES SCOLAIRES"
      },
      "geometry": {
        "type": "Point",
        "coordinates": [
          2.819094,
          49.4152817
        ]
      },
      "id": "node/1647012085"
    },
    {
      "type": "Feature",
      "properties": {
        "@id": "node/1651489385",
        "emergency": "defibrillator"
      },
      "geometry": {
        "type": "Point",
        "coordinates": [
          0.6555505,
          47.3777771
        ]
      },
      "id": "node/1651489385"
    },
    {
      "type": "Feature",
      "properties": {
        "@id": "node/1662417201",
        "emergency": "defibrillator"
      },
      "geometry": {
        "type": "Point",
        "coordinates": [
          -1.834342,
          49.664882
        ]
      },
      "id": "node/1662417201"
    },
    {
      "type": "Feature",
      "properties": {
        "@id": "node/1666044335",
        "emergency": "defibrillator"
      },
      "geometry": {
        "type": "Point",
        "coordinates": [
          3.031525,
          50.6040368
        ]
      },
      "id": "node/1666044335"
    },
    {
      "type": "Feature",
      "properties": {
        "@id": "node/1666129876",
        "emergency": "defibrillator"
      },
      "geometry": {
        "type": "Point",
        "coordinates": [
          2.5805812,
          50.8119379
        ]
      },
      "id": "node/1666129876"
    },
    {
      "type": "Feature",
      "properties": {
        "@id": "node/1668309312",
        "emergency": "defibrillator"
      },
      "geometry": {
        "type": "Point",
        "coordinates": [
          2.677476,
          42.7492185
        ]
      },
      "id": "node/1668309312"
    },
    {
      "type": "Feature",
      "properties": {
        "@id": "node/1670281626",
        "emergency": "defibrillator",
        "leisure": "pitch",
        "name": "Gymnase Jean Verdier",
        "source": "survey"
      },
      "geometry": {
        "type": "Point",
        "coordinates": [
          2.360162,
          48.869434
        ]
      },
      "id": "node/1670281626"
    },
    {
      "type": "Feature",
      "properties": {
        "@id": "node/1670742184",
        "emergency": "defibrillator"
      },
      "geometry": {
        "type": "Point",
        "coordinates": [
          5.0511751,
          47.4332843
        ]
      },
      "id": "node/1670742184"
    },
    {
      "type": "Feature",
      "properties": {
        "@id": "node/1675767821",
        "emergency": "defibrillator",
        "indoor": "no"
      },
      "geometry": {
        "type": "Point",
        "coordinates": [
          -1.1686411,
          44.6623589
        ]
      },
      "id": "node/1675767821"
    },
    {
      "type": "Feature",
      "properties": {
        "@id": "node/1679546175",
        "emergency": "defibrillator"
      },
      "geometry": {
        "type": "Point",
        "coordinates": [
          -0.3680771,
          49.1830145
        ]
      },
      "id": "node/1679546175"
    },
    {
      "type": "Feature",
      "properties": {
        "@id": "node/1685820865",
        "emergency": "defibrillator"
      },
      "geometry": {
        "type": "Point",
        "coordinates": [
          2.3623332,
          48.8266274
        ]
      },
      "id": "node/1685820865"
    },
    {
      "type": "Feature",
      "properties": {
        "@id": "node/1697701859",
        "emergency": "defibrillator",
        "leisure": "sports_centre",
        "name": "Salle de Sport Amyot"
      },
      "geometry": {
        "type": "Point",
        "coordinates": [
          2.3475285,
          48.8434375
        ]
      },
      "id": "node/1697701859"
    },
    {
      "type": "Feature",
      "properties": {
        "@id": "node/1698212670",
        "emergency": "defibrillator",
        "note": "Accueil Sécurité Sociale"
      },
      "geometry": {
        "type": "Point",
        "coordinates": [
          2.2079186,
          48.8927415
        ]
      },
      "id": "node/1698212670"
    },
    {
      "type": "Feature",
      "properties": {
        "@id": "node/1699749910",
        "emergency": "defibrillator"
      },
      "geometry": {
        "type": "Point",
        "coordinates": [
          2.3392516,
          48.7762729
        ]
      },
      "id": "node/1699749910"
    },
    {
      "type": "Feature",
      "properties": {
        "@id": "node/1704479257",
        "emergency": "defibrillator"
      },
      "geometry": {
        "type": "Point",
        "coordinates": [
          7.233904,
          47.6401515
        ]
      },
      "id": "node/1704479257"
    },
    {
      "type": "Feature",
      "properties": {
        "@id": "node/1705484747",
        "emergency": "defibrillator"
      },
      "geometry": {
        "type": "Point",
        "coordinates": [
          6.5704692,
          45.4511514
        ]
      },
      "id": "node/1705484747"
    },
    {
      "type": "Feature",
      "properties": {
        "@id": "node/1708347970",
        "amenity": "toilets",
        "emergency": "defibrillator",
        "fee": "no",
        "indoor": "yes",
        "unisex": "yes",
        "wheelchair": "limited"
      },
      "geometry": {
        "type": "Point",
        "coordinates": [
          6.0154463,
          45.264957
        ]
      },
      "id": "node/1708347970"
    },
    {
      "type": "Feature",
      "properties": {
        "@id": "node/1716513529",
        "addr:city": "Marignac",
        "addr:country": "FR",
        "addr:postcode": "31440",
        "addr:street": "Rue Jean Jaurès",
        "emergency": "defibrillator",
        "note": "Sur la façade de la Mairie, accessible 24h/24",
        "source": "ladepeche.fr"
      },
      "geometry": {
        "type": "Point",
        "coordinates": [
          0.6583605,
          42.9135263
        ]
      },
      "id": "node/1716513529"
    },
    {
      "type": "Feature",
      "properties": {
        "@id": "node/1716513534",
        "addr:city": "Saint-Pierre-d'Irube",
        "addr:country": "FR",
        "addr:housenumber": "1 bis",
        "addr:postcode": "64990",
        "addr:street": "Rue d'Etcherouty",
        "defibrillator:location": "Résidence pour personnes agées Harriola",
        "emergency": "defibrillator",
        "source": "sudouest"
      },
      "geometry": {
        "type": "Point",
        "coordinates": [
          -1.4393555,
          43.4652449
        ]
      },
      "id": "node/1716513534"
    },
    {
      "type": "Feature",
      "properties": {
        "@id": "node/1716513538",
        "addr:city": "Saint-Pierre-d'Irube",
        "addr:country": "FR",
        "addr:postcode": "64990",
        "addr:street": "Place de la Mairie",
        "defibrillator:location": "Mairie",
        "emergency": "defibrillator",
        "source": "sudouest"
      },
      "geometry": {
        "type": "Point",
        "coordinates": [
          -1.4592652,
          43.4789024
        ]
      },
      "id": "node/1716513538"
    },
    {
      "type": "Feature",
      "properties": {
        "@id": "node/1716513545",
        "addr:city": "Chalon-sur-Saône",
        "addr:country": "FR",
        "addr:housenumber": "1",
        "addr:postcode": "71100",
        "addr:street": "Avenue de Verdun",
        "emergency": "defibrillator",
        "fixme": "vérifier position et horaires d'accès",
        "note": "CCI - Chambre de commerce et de l'industrie",
        "source": "http://www.lejsl.com"
      },
      "geometry": {
        "type": "Point",
        "coordinates": [
          4.8530988,
          46.7767724
        ]
      },
      "id": "node/1716513545"
    },
    {
      "type": "Feature",
      "properties": {
        "@id": "node/1716513560",
        "addr:city": "Chalon-sur-Saône",
        "addr:country": "FR",
        "addr:housenumber": "1",
        "addr:postcode": "71100",
        "addr:street": "Place Sainte-Marie",
        "emergency": "defibrillator",
        "note": "Espace Santé prévention",
        "source": "http://www.lejsl.com"
      },
      "geometry": {
        "type": "Point",
        "coordinates": [
          4.8611442,
          46.7818994
        ]
      },
      "id": "node/1716513560"
    },
    {
      "type": "Feature",
      "properties": {
        "@id": "node/1716513566",
        "addr:city": "Chalon-sur-Saône",
        "addr:country": "FR",
        "addr:housenumber": "36",
        "addr:postcode": "71100",
        "addr:street": "Rue du Général Leclerc",
        "emergency": "defibrillator",
        "note": "Au CCAS (centre communal d'action social)",
        "source": "http://www.lejsl.com"
      },
      "geometry": {
        "type": "Point",
        "coordinates": [
          4.8534788,
          46.7830925
        ]
      },
      "id": "node/1716513566"
    },
    {
      "type": "Feature",
      "properties": {
        "@id": "node/1716513571",
        "addr:city": "Chalon-sur-Saône",
        "addr:country": "FR",
        "addr:postcode": "71100",
        "addr:street": "Rue d'Amsterdam",
        "emergency": "defibrillator",
        "note": "Parc des Expositions",
        "source": "http://www.lejsl.com"
      },
      "geometry": {
        "type": "Point",
        "coordinates": [
          4.8650925,
          46.7856239
        ]
      },
      "id": "node/1716513571"
    },
    {
      "type": "Feature",
      "properties": {
        "@id": "node/1716513577",
        "addr:city": "Chalon-sur-Saône",
        "addr:country": "FR",
        "addr:housenumber": "6",
        "addr:postcode": "71100",
        "addr:street": "Rue d'Amsterdam",
        "emergency": "defibrillator",
        "note": "dans chaque infirmerie du centre nautique",
        "source": "http://www.lejsl.com"
      },
      "geometry": {
        "type": "Point",
        "coordinates": [
          4.8663159,
          46.7856129
        ]
      },
      "id": "node/1716513577"
    },
    {
      "type": "Feature",
      "properties": {
        "@id": "node/1716513583",
        "addr:city": "Chalon-sur-Saône",
        "addr:country": "FR",
        "addr:postcode": "71100",
        "addr:street": "Rue d'Amsterdam",
        "emergency": "defibrillator",
        "note": "Le Colisée",
        "source": "http://www.lejsl.com"
      },
      "geometry": {
        "type": "Point",
        "coordinates": [
          4.8653019,
          46.7863622
        ]
      },
      "id": "node/1716513583"
    },
    {
      "type": "Feature",
      "properties": {
        "@id": "node/1716513587",
        "addr:city": "Chalon-sur-Saône",
        "addr:country": "FR",
        "addr:postcode": "71100",
        "addr:street": "Place Mathias",
        "emergency": "defibrillator",
        "note": "salle Marcel-Sembat",
        "source": "http://www.lejsl.com"
      },
      "geometry": {
        "type": "Point",
        "coordinates": [
          4.8597792,
          46.7867958
        ]
      },
      "id": "node/1716513587"
    },
    {
      "type": "Feature",
      "properties": {
        "@id": "node/1716513598",
        "addr:city": "Chalon-sur-Saône",
        "addr:country": "FR",
        "addr:postcode": "71100",
        "defibrillator:location": "Stade Léo Lagrange, il se situe dans la buvette des tribunes, accessible pendant les entrainements et les matchs",
        "emergency": "defibrillator",
        "source": "http://www.lejsl.com"
      },
      "geometry": {
        "type": "Point",
        "coordinates": [
          4.8469957,
          46.809401
        ]
      },
      "id": "node/1716513598"
    },
    {
      "type": "Feature",
      "properties": {
        "@id": "node/1716513612",
        "addr:city": "Aubencheul-au-Bac",
        "addr:country": "FR",
        "addr:street": "Rue des Colombes",
        "emergency": "defibrillator",
        "name": "Défibrillateur",
        "note": "A l'entrée du Camping",
        "postal_code": "59265",
        "source": "lavoiedunord.fr"
      },
      "geometry": {
        "type": "Point",
        "coordinates": [
          3.1670124,
          50.2558996
        ]
      },
      "id": "node/1716513612"
    },
    {
      "type": "Feature",
      "properties": {
        "@id": "node/1717917321",
        "emergency": "defibrillator",
        "name": "Défibrillateur Automatique"
      },
      "geometry": {
        "type": "Point",
        "coordinates": [
          4.2177726,
          43.8267294
        ]
      },
      "id": "node/1717917321"
    },
    {
      "type": "Feature",
      "properties": {
        "@id": "node/1719770161",
        "addr:city": "Loperhet",
        "addr:country": "FR",
        "addr:postcode": "29470",
        "addr:street": "Route du Port de Rostiviec",
        "emergency": "defibrillator",
        "name": "Défibrillateur",
        "note": "Au CNRL, centre Nautique de Rostiviec-Loperhet",
        "source": "letelegramme.com"
      },
      "geometry": {
        "type": "Point",
        "coordinates": [
          -4.328138,
          48.3483874
        ]
      },
      "id": "node/1719770161"
    },
    {
      "type": "Feature",
      "properties": {
        "@id": "node/1719770168",
        "addr:city": "Plougastel-Daoulas",
        "addr:country": "FR",
        "addr:housenumber": "400",
        "addr:postcode": "29470",
        "addr:street": "Le Vern",
        "emergency": "defibrillator",
        "name": "Défibrillateur",
        "note": "A la salle Avel Sport",
        "source": "letelegramme.com"
      },
      "geometry": {
        "type": "Point",
        "coordinates": [
          -4.3606887,
          48.3696409
        ]
      },
      "id": "node/1719770168"
    },
    {
      "type": "Feature",
      "properties": {
        "@id": "node/1719770187",
        "emergency": "defibrillator",
        "note": "A l'espace Avel Vor",
        "source": "letelegramme.com"
      },
      "geometry": {
        "type": "Point",
        "coordinates": [
          -4.3619914,
          48.3711614
        ]
      },
      "id": "node/1719770187"
    },
    {
      "type": "Feature",
      "properties": {
        "@id": "node/1719770199",
        "addr:city": "Plougastel-Daoulas",
        "addr:country": "FR",
        "addr:housenumber": "1",
        "addr:postcode": "29470",
        "addr:street": "Rue Jean Fournier",
        "emergency": "defibrillator",
        "name": "Défibrillateur",
        "note": "A la mairie",
        "source": "letelegramme.com"
      },
      "geometry": {
        "type": "Point",
        "coordinates": [
          -4.3705061,
          48.3724886
        ]
      },
      "id": "node/1719770199"
    },
    {
      "type": "Feature",
      "properties": {
        "@id": "node/1719770217",
        "addr:street": "Rue du Stade",
        "emergency": "defibrillator"
      },
      "geometry": {
        "type": "Point",
        "coordinates": [
          -4.3067274,
          48.3805329
        ]
      },
      "id": "node/1719770217"
    },
    {
      "type": "Feature",
      "properties": {
        "@id": "node/1722260402",
        "contact:housenumber": "1",
        "contact:street": "Place de l'Église",
        "defibrillator:location": "outside",
        "emergency": "defibrillator",
        "opening_hours": "24/7",
        "source": "http://www.lhopital-camfrout.fr",
        "support": "wall_mounted"
      },
      "geometry": {
        "type": "Point",
        "coordinates": [
          -4.241785,
          48.3283847
        ]
      },
      "id": "node/1722260402"
    },
    {
      "type": "Feature",
      "properties": {
        "@id": "node/1722260403",
        "contact:street": "Place Saint-Yves",
        "defibrillator:location": "Dans le hall du Pôle Social (ancienne Mairie)",
        "emergency": "defibrillator",
        "source": "www.daoulas.com"
      },
      "geometry": {
        "type": "Point",
        "coordinates": [
          -4.2602497,
          48.359528
        ]
      },
      "id": "node/1722260403"
    },
    {
      "type": "Feature",
      "properties": {
        "@id": "node/1722260404",
        "addr:city": "Irvillac",
        "addr:country": "FR",
        "addr:housenumber": "17",
        "addr:postcode": "29460",
        "addr:street": "Route de Landerneau",
        "emergency": "defibrillator",
        "name": "Défibrillateur",
        "note": "Situé à l'entrée de la Mairie de Irvillac, au 17 Route de Landerneau",
        "source": "www.irvillac.fr"
      },
      "geometry": {
        "type": "Point",
        "coordinates": [
          -4.2128712,
          48.3713505
        ]
      },
      "id": "node/1722260404"
    },
    {
      "type": "Feature",
      "properties": {
        "@id": "node/1722260405",
        "contact:housenumber": "7",
        "contact:street": "Rue de l'Église",
        "defibrillator:location": "À l'entrée de la Mairie",
        "emergency": "defibrillator",
        "indoor": "no",
        "opening_hours": "24/7",
        "source": "Dirinon infos"
      },
      "geometry": {
        "type": "Point",
        "coordinates": [
          -4.2688831,
          48.3982644
        ]
      },
      "id": "node/1722260405"
    },
    {
      "type": "Feature",
      "properties": {
        "@id": "node/1725843081",
        "addr:city": "Arzano",
        "addr:country": "FR",
        "addr:postcode": "29300",
        "addr:street": "Rue de Keralvé",
        "emergency": "defibrillator",
        "name": "Défibrillateur",
        "note": "A la salle Socioculturelle (Louis Yhuel), placé dans la partie bar à l'entrée de l'office. AJOUT : 21/04/2012",
        "source": "letelegramme.com"
      },
      "geometry": {
        "type": "Point",
        "coordinates": [
          -3.4438274,
          47.9019764
        ]
      },
      "id": "node/1725843081"
    },
    {
      "type": "Feature",
      "properties": {
        "@id": "node/1726324147",
        "addr:housenumber": "31",
        "addr:street": "Rue de Saint-Thurien",
        "defibrillator:location": "A l'entrée de l'EHPAD, ouvert tous les jours et même la nuit en sonnant",
        "emergency": "defibrillator",
        "indoor": "yes",
        "source": "letelegramme.com"
      },
      "geometry": {
        "type": "Point",
        "coordinates": [
          -3.6960375,
          47.9343842
        ]
      },
      "id": "node/1726324147"
    },
    {
      "type": "Feature",
      "properties": {
        "@id": "node/1730546876",
        "access": "yes",
        "defibrillator:location": "À l'extérieur, juste à côté de l'entrée",
        "emergency": "defibrillator",
        "indoor": "no",
        "opening_hours": "24/7"
      },
      "geometry": {
        "type": "Point",
        "coordinates": [
          2.7640769,
          48.448696
        ]
      },
      "id": "node/1730546876"
    },
    {
      "type": "Feature",
      "properties": {
        "@id": "node/1735807097",
        "emergency": "defibrillator",
        "name": "Défibrillateur"
      },
      "geometry": {
        "type": "Point",
        "coordinates": [
          3.7361675,
          43.8949124
        ]
      },
      "id": "node/1735807097"
    },
    {
      "type": "Feature",
      "properties": {
        "@id": "node/1739828441",
        "addr:city": "Bénodet",
        "addr:country": "FR",
        "addr:postcode": "29950",
        "addr:street": "Avenue de la Plage",
        "emergency": "defibrillator",
        "name": "Défibrillateur",
        "note": "Au poste de secours de la plage du Trez - ouvert de 12 h 30 à 19 h JUILLET et AOUT// Ajout 03/05/2012",
        "opening_hours": "Jul-Aug 12:30-19:00",
        "source": "http://www.quimper.maville.com/actu/actudet_-Benodet-les-maitres-nageurs-veillent-sur-la-plage-_loc-1012290_actu.Htm"
      },
      "geometry": {
        "type": "Point",
        "coordinates": [
          -4.1066473,
          47.8714781
        ]
      },
      "id": "node/1739828441"
    },
    {
      "type": "Feature",
      "properties": {
        "@id": "node/1741385642",
        "emergency": "defibrillator"
      },
      "geometry": {
        "type": "Point",
        "coordinates": [
          -0.363518,
          48.70033
        ]
      },
      "id": "node/1741385642"
    },
    {
      "type": "Feature",
      "properties": {
        "@id": "node/1741409487",
        "emergency": "defibrillator",
        "indoor": "no"
      },
      "geometry": {
        "type": "Point",
        "coordinates": [
          -1.3179469,
          48.6470182
        ]
      },
      "id": "node/1741409487"
    },
    {
      "type": "Feature",
      "properties": {
        "@id": "node/1745579494",
        "emergency": "defibrillator",
        "indoor": "no"
      },
      "geometry": {
        "type": "Point",
        "coordinates": [
          3.115098,
          45.757834
        ]
      },
      "id": "node/1745579494"
    },
    {
      "type": "Feature",
      "properties": {
        "@id": "node/1747859029",
        "addr:city": "Rezé",
        "addr:housenumber": "20",
        "addr:postcode": "44400",
        "addr:street": "Rue du Château de Rezé",
        "amenity": "school",
        "emergency": "defibrillator",
        "name": "Lycée professionnel Louis-Jacques Goussier",
        "operator:type": "public",
        "ref:UAI": "0440063E",
        "school:FR": "lycée",
        "source": "Ministère de l'Education nationale, de la Jeunesse et de la Vie associative"
      },
      "geometry": {
        "type": "Point",
        "coordinates": [
          -1.5611492,
          47.1824557
        ]
      },
      "id": "node/1747859029"
    },
    {
      "type": "Feature",
      "properties": {
        "@id": "node/1750907730",
        "addr:city": "Beuzec-Cap-Sizun",
        "addr:country": "FR",
        "addr:postcode": "29790",
        "addr:street": "Route du Stade",
        "emergency": "defibrillator",
        "name": "Défibrillateur",
        "note": "Au stade de foot dans le bâtiment des vestiaires. clef de l'appareil en mairie. Ajout : 13/05/2012",
        "source": "http://www.letelegramme.com/local/finistere-sud/ouest-cornouaille/capsizun/beuzeccapsizu/defibrillateur-la-commune-s-equipe-28-04-2010-890725.php"
      },
      "geometry": {
        "type": "Point",
        "coordinates": [
          -4.4951106,
          48.0721595
        ]
      },
      "id": "node/1750907730"
    },
    {
      "type": "Feature",
      "properties": {
        "@id": "node/1750907732",
        "addr:city": "Bohars",
        "addr:country": "FR",
        "addr:postcode": "29820",
        "addr:street": "Créac'h Bellec",
        "emergency": "defibrillator",
        "name": "Défibrillateur",
        "note": "A l'espace Roz Valan, Créac'h Bellec / Ajout 13/05/2012",
        "source": "http://www.amf29.asso.fr/forum/getfile.php/amf29_aapc/8683/REGLEMENT%20CONSULTATION%20DEFIBRILATEUR%202012.pdf"
      },
      "geometry": {
        "type": "Point",
        "coordinates": [
          -4.5240805,
          48.4253953
        ]
      },
      "id": "node/1750907732"
    },
    {
      "type": "Feature",
      "properties": {
        "@id": "node/1750907734",
        "contact:city": "Bohars",
        "contact:country": "FR",
        "contact:postcode": "29820",
        "contact:street": "Rue du Kreisker",
        "emergency": "defibrillator",
        "name": "Défibrillateur",
        "note": "Dans l’entrée de la halle de sports, à côté de la porte de l’infirmerie. Ajout : 13/05/2012",
        "source": "http://www.mairie-bohars.fr/echo/ech0904.pdf"
      },
      "geometry": {
        "type": "Point",
        "coordinates": [
          -4.5143238,
          48.4268165
        ]
      },
      "id": "node/1750907734"
    },
    {
      "type": "Feature",
      "properties": {
        "@id": "node/1750907736",
        "addr:city": "Bohars",
        "addr:country": "FR",
        "addr:postcode": "29820",
        "addr:street": "Rue du Veuleury",
        "emergency": "defibrillator",
        "name": "Défibrillateur",
        "note": "Stade Mathieu Pellen, rue du Veuleury / Ajout : 13/05/2012",
        "source": "http://www.amf29.asso.fr/forum/getfile.php/amf29_aapc/8683/REGLEMENT%20CONSULTATION%20DEFIBRILATEUR%202012.pdf"
      },